[{"id_evenement":"3","sport":"Badminton","lieu":"Stade de Deuil","latitude":"48.968628","longitude":"2.3222098999999616","date":"25\/03\/2016","heuredebut":"20h48","heurefin":"23h48","nombrepersonnes":"4","materiel":"true","adresse":"6 Rue Jean Bouin - 95170","ville":"Deuil La Barre","participants":"3"}, {"id_evenement":"4","sport":"Football","lieu":"La Butte aux P\u00e8res","latitude":"49.002441","longitude":"2.321680","date":"28\/03\/2015","heuredebut":"18h00","heurefin":"20h30","nombrepersonnes":"12","materiel":"true","adresse":"15 Chemin de La Butte aux P\u00e8res 95160","ville":"Montmorency","participants":"12"}, {"id_evenement":"5","sport":"Course \u00e0 pied","lieu":"Centre sportif \u00c9mile antoine","latitude":"48.856502","longitude":"2.2894558","date":"03\/04\/2016","heuredebut":"16h51","heurefin":"18h52","nombrepersonnes":"25","materiel":"true","adresse":"6 rue roosevelt","ville":"Paris","participants":"7"}, {"id_evenement":"13","sport":"Tennis","lieu":" Tep dunois","latitude":"48.8324674","longitude":"2.3645727","date":"08\/04\/2016","heuredebut":"14h2","heurefin":"16h2","nombrepersonnes":"5","materiel":"true","adresse":"6 rue saint-denis","ville":"Paris","participants":"1"}, {"id_evenement":"16","sport":"Rugby","lieu":"Complexe Sportif Ostermeyer","latitude":"49.132849","longitude":"2.353227","date":"09\/04\/2016","heuredebut":"02h14","heurefin":"20h45","nombrepersonnes":"6","materiel":"true","adresse":"37 rue saint-honor\u00e9","ville":"Asni\u00e8res sur Oise","participants":"1"}, {"id_evenement":"17","sport":"Basketball","lieu":"Terrain de Proximite Peche Mele","latitude":"48.859063","longitude":"2.461357","date":"09\/04\/2016","heuredebut":"18h33","heurefin":"20h33","nombrepersonnes":"5","materiel":"true","adresse":" Rue Lenain de Tillemont","ville":"Montreuil","participants":"1"}, {"id_evenement":"18","sport":"Basketball","lieu":"Gymnase les Rabats","latitude":"48.739435","longitude":"2.305618","date":"09\/04\/2016","heuredebut":"21h43","heurefin":"23h43","nombrepersonnes":"5","materiel":"true","adresse":"167 Rue des Rabats","ville":"Antony","participants":"2"}, {"id_evenement":"19","sport":"Football","lieu":"Stade Jean Bouin","latitude":"48.768297","longitude":"2.424316","date":"11\/04\/2016","heuredebut":"17h14","heurefin":"20h16","nombrepersonnes":"5","materiel":"true","adresse":" Avenue Jean Bouin","ville":"Choisy-le-Roi","participants":"1"}, {"id_evenement":"20","sport":"Tennis","lieu":"Gymnase Colette Besson","latitude":"49.080875","longitude":"2.661114","date":"16\/04\/2016","heuredebut":"22h7","heurefin":"00h07","nombrepersonnes":"4","materiel":"true","adresse":" Rd 13","ville":"Othis","participants":"0"}, {"id_evenement":"21","sport":"Basketball","lieu":"Centre Hippique","latitude":"49.066276","longitude":"2.072641","date":"16\/04\/2016","heuredebut":"22h14","heurefin":"00h14","nombrepersonnes":"4","materiel":"true","adresse":" Rue du Docteur Schweitzer","ville":"Meaux","participants":"0"}, {"id_evenement":"22","sport":"Tennis","lieu":"Gymnase Colette Besson","latitude":"49.080875","longitude":"2.661114","date":"07\/04\/2016","heuredebut":"22h21","heurefin":"23h22","nombrepersonnes":"4","materiel":"true","adresse":" Rd 13","ville":"Othis","participants":"0"}, {"id_evenement":"23","sport":"Cyclisme","lieu":"Stade Ampere","latitude":"46.989608","longitude":"3.150311","date":"16\/04\/2016","heuredebut":"22h29","heurefin":"00h29","nombrepersonnes":"5","materiel":"true","adresse":"6 Rue Amp\u00e8re","ville":"Saint-Ouen","participants":"2"}, {"id_evenement":"24","sport":"Tennis","lieu":"Stade Municipal","latitude":"50.819133","longitude":"6.234416","date":"16\/04\/2016","heuredebut":"22h30","heurefin":"22h30","nombrepersonnes":"4","materiel":"true","adresse":" La Pente de la Huette","ville":"Celle-sur-Morin","participants":"0"}, {"id_evenement":"25","sport":"Cyclisme","lieu":"Parc de Louches","latitude":"50.830628","longitude":"2.00636","date":"16\/04\/2016","heuredebut":"22h31","heurefin":"23h31","nombrepersonnes":"5","materiel":"true","adresse":" Allee de Louches","ville":"Annet-sur-Marne","participants":"1"}, {"id_evenement":"26","sport":"Tennis","lieu":"Tour de Buthiers","latitude":"49.23056","longitude":"4.056496","date":"16\/04\/2016","heuredebut":"22h32","heurefin":"00h32","nombrepersonnes":"5","materiel":"true","adresse":"18 Rue des Roches","ville":"Buthiers","participants":"0"}, {"id_evenement":"27","sport":"Tennis","lieu":"Terrain de Proximite Henry Dunant","latitude":"50.772061","longitude":"3.055251","date":"16\/04\/2016","heuredebut":"22h48","heurefin":"22h48","nombrepersonnes":"3","materiel":"true","adresse":"1 Square Henry Dunant","ville":"Lilas","participants":"0"}, {"id_evenement":"28","sport":"Basketball","lieu":"Piscine Municipale Jean Taris","latitude":"48.844684","longitude":"2.348019","date":"16\/04\/2016","heuredebut":"05h52","heurefin":"15h52","nombrepersonnes":"4","materiel":"true","adresse":"16 Rue Thouin","ville":"Paris","participants":"0"}, {"id_evenement":"29","sport":"Course \u00e0 pied","lieu":"Le Canyon","latitude":"48.954525","longitude":"2.320597","date":"17\/04\/2016","heuredebut":"00h18","heurefin":"02h19","nombrepersonnes":"6","materiel":"true","adresse":"8 Rue Henri Wallon","ville":"\u00c9pinay-sur-Seine","participants":"1"}, {"id_evenement":"30","sport":"Badminton","lieu":"Centre Sportif Jean Dame \t","latitude":"48.866622","longitude":"2.34551","date":"17\/04\/2016","heuredebut":"12h00","heurefin":"14h00","nombrepersonnes":"5","materiel":"true","adresse":"17 Rue L\u00e9opold Bellan ","ville":"Paris","participants":"1"}, {"id_evenement":"31","sport":"Rugby","lieu":"Terrain de Proximite Charles Perrault","latitude":"50.290476","longitude":"3.970335","date":"21\/04\/2016","heuredebut":"13h54","heurefin":"15h55","nombrepersonnes":"7","materiel":"true","adresse":" Ecole Charles Perrault C\u00f4te Boulevard Marcel Cachin","ville":"Igny","participants":"0"}, {"id_evenement":"32","sport":"Handball","lieu":"Centre Equestre Rothschild","latitude":"48.845442","longitude":"2.237158","date":"19\/04\/2016","heuredebut":"07h56","heurefin":"10h56","nombrepersonnes":"8","materiel":"true","adresse":"1 Boulevard Anatole France","ville":"Boulogne-Billancourt","participants":"0"}, {"id_evenement":"33","sport":"Basketball","lieu":"Complexe Omnisport","latitude":"49.367394","longitude":"6.139521","date":"08\/04\/2016","heuredebut":"21h56","heurefin":"23h56","nombrepersonnes":"5","materiel":"true","adresse":" Zone Sportive","ville":"Moussy-le-Vieux","participants":"0"}, {"id_evenement":"34","sport":"Tennis","lieu":"Parc de Louches","latitude":"50.830628","longitude":"2.00636","date":"18\/04\/2016","heuredebut":"21h59","heurefin":"22h59","nombrepersonnes":"3","materiel":"true","adresse":" Allee de Louches","ville":"Annet-sur-Marne","participants":"0"}, {"id_evenement":"35","sport":"Badminton","lieu":"Terrain de Proximite Henry Dunant","latitude":"50.772061","longitude":"3.055251","date":"18\/04\/2016","heuredebut":"22h57","heurefin":"22h57","nombrepersonnes":"3","materiel":"true","adresse":"1 Square Henry Dunant","ville":"Lilas","participants":"0"}, {"id_evenement":"36","sport":"Tennis","lieu":"Terrain de P\u00e9tanque","latitude":"49.101317","longitude":"3.081535","date":"15\/04\/2016","heuredebut":"23h13","heurefin":"03h13","nombrepersonnes":"2","materiel":"true","adresse":" Avenue de Montigny","ville":"Crouy-sur-Ourcq","participants":"0"}, {"id_evenement":"37","sport":"Basketball","lieu":"Gymnase Gambetta","latitude":"48.732145","longitude":"2.276645","date":"05\/05\/2016","heuredebut":"03h40","heurefin":"20h20","nombrepersonnes":"8","materiel":"true","adresse":" Rue Eugene Cretel","ville":"Massy","participants":"0"}, {"id_evenement":"38","sport":"Football","lieu":"Centre Omnisports Dr Jean Blot","latitude":"48.903604","longitude":"2.252927","date":"19\/05\/2016","heuredebut":"13h31","heurefin":"15h31","nombrepersonnes":"6","materiel":"true","adresse":"21 Rue Pierre Brosolette","ville":"Courbevoie","participants":"0"}, {"id_evenement":"39","sport":"Basketball","lieu":"A\u00e9roclub de Chelles \/ le Pin","latitude":"-19.181179","longitude":"31.519953","date":"17\/08\/2016","heuredebut":"13h1","heurefin":"16h1","nombrepersonnes":"4","materiel":"true","adresse":"61 Rue Robert Macombe","ville":"Pin","participants":"1"}, {"id_evenement":"40","sport":"Basketball","lieu":"Jumping Club de Bois le Roi","latitude":"43.63663","longitude":"1.42743","date":"26\/09\/2016","heuredebut":"12h28","heurefin":"02h41","nombrepersonnes":"2","materiel":"true","adresse":"33 Avenue Joffre","ville":"Bois-le-Roi","participants":"2"}, {"id_evenement":"41","sport":"Basketball","lieu":"Stade Municipal","latitude":"50.819133","longitude":"6.234416","date":"11\/11\/2016","heuredebut":"10h23","heurefin":"14h23","nombrepersonnes":"2","materiel":"true","adresse":" La Pente de la Huette","ville":"Celle-sur-Morin","participants":"0"}, {"id_evenement":"42","sport":"Football","lieu":"Stade \u00c9mile Courtois","latitude":"48.75632","longitude":"-3.468858","date":"04\/12\/2017","heuredebut":"23h30","heurefin":"04h35","nombrepersonnes":"5","materiel":"true","adresse":"4 Rue Pierre Loyer","ville":"Juilly","participants":"0"}, {"id_evenement":"43","sport":"Rugby","lieu":"Parc des Sports N\u00b02","latitude":"43.314568","longitude":"3.408972","date":"07\/12\/2017","heuredebut":"13h37","heurefin":"23h37","nombrepersonnes":"4","materiel":"true","adresse":" Avenue du Marechal Koening","ville":"Massy","participants":"0"}, {"id_evenement":"44","sport":"Rugby","lieu":"Espace de Proximite - Quartier Marche","latitude":"49.590984","longitude":"5.278274","date":"14\/12\/2017","heuredebut":"05h40","heurefin":"08h40","nombrepersonnes":"5","materiel":"true","adresse":" Quartier Marche","ville":"Meaux","participants":"0"}, {"id_evenement":"45","sport":"Football","lieu":"Stade Sans Souci","latitude":"50.426027","longitude":"2.840407","date":"08\/12\/2017","heuredebut":"04h10","heurefin":"05h57","nombrepersonnes":"5","materiel":"true","adresse":" 4 Place de la Breche","ville":"Versailles","participants":"0"}, {"id_evenement":"46","sport":"Basketball","lieu":"Terrain de Petanque","latitude":"50.670195","longitude":"2.899821","date":"11\/12\/2017","heuredebut":"01h58","heurefin":"03h58","nombrepersonnes":"4","materiel":"true","adresse":" Rue du General Leclerc","ville":"Chapelle-Iger","participants":"0"}]