[{"sport":"Badminton","lieu":"Stade de Deuil","latitude":"48.968628","longitude":"2.3222098999999616","date":"25\/03\/2016","heuredebut":"20h48","heurefin":"23h48","nombrepersonnes":"4","materiel":"true","adresse":"6 Rue Jean Bouin - 95170","ville":"Deuil La Barre"}, 
	{"sport":"Football","lieu":"La Butte aux P\u00e8res","latitude":"49.002441","longitude":"2.321680","date":"28\/03\/2015","heuredebut":"18h00","heurefin":"20h30","nombrepersonnes":"12","materiel":"true","adresse":"15 Chemin de La Butte aux P\u00e8res 95160","ville":"Montmorency"}, 
	{"sport":"Course \u00e0 pied","lieu":"Centre sportif \u00c9mile antoine","latitude":"48.856502","longitude":"2.2894558","date":"03\/04\/2016","heuredebut":"16h51","heurefin":"18h52","nombrepersonnes":"25","materiel":"true","adresse":"6 rue roosevelt","ville":"Paris"},
	{"sport":"Tennis","lieu":" Tep dunois","latitude":"48.8324674","longitude":"2.3645727","date":"08\/04\/2016","heuredebut":"14h2","heurefin":"16h2","nombrepersonnes":"5","materiel":"true","adresse":"6 rue saint-denis","ville":"Paris","participants":"1"},
	{"sport":"Rugby","lieu":"Complexe Sportif Ostermeyer","latitude":"49.132849","longitude":"2.353227","date":"09\/04\/2016","heuredebut":"02h14","heurefin":"20h45","nombrepersonnes":"6","materiel":"true","adresse":"37 rue saint-honor\u00e9","ville":"Asni\u00e8res sur Oise"},
